{"climbing": [{"lon": 2.1871444, "lat": 41.8178636, "name": "Can F\u00e0cil"}, {"lon": 0.5973951000000001, "lat": 41.692516100000006, "name": null}, {"lon": 2.1371099, "lat": 41.3692635, "name": "Roc\u00f3dromo autogestionado de Can Batll\u00f3"}, {"lon": 2.1498057, "lat": 41.4145733, "name": null}, {"lon": 2.1696614000000003, "lat": 41.437688400000006, "name": null}, {"lon": 1.7039922, "lat": 41.305396, "name": null}, {"lon": 2.1775829, "lat": 41.4504427, "name": "Roc\u00f2drom de Roquetes"}, {"lon": 2.1715898, "lat": 41.447734000000004, "name": null}, {"lon": 1.8510890000000002, "lat": 42.271999900000004, "name": "Riugr\u00e9ixer"}, {"lon": 1.9791258, "lat": 41.2751376, "name": "roc\u00f2drom infantil"}, {"lon": 1.9790589, "lat": 41.275124500000004, "name": "roc\u00f2drom infantil"}, {"lon": 1.7202996000000002, "lat": 41.245529700000006, "name": "Indoorwall Vilanova i la Geltr\u00fa"}, {"lon": 1.1535856, "lat": 41.312061, "name": "Lo Terrall"}, {"lon": 1.1637213000000002, "lat": 41.322273, "name": "La Conxinxina"}, {"lon": 1.1839093, "lat": 41.3200519, "name": "El Toll de la Paret"}, {"lon": 2.1805145, "lat": 41.548457600000006, "name": "B\u00falder Planet Vall\u00e8s"}, {"lon": 0.8100862000000001, "lat": 41.7962914, "name": "Roc\u00f2drom Boulder Balaguer"}, {"lon": 2.3544436, "lat": 41.6429516, "name": "Roc\u00f2drom"}, {"lon": 2.1858417, "lat": 41.424712400000004, "name": "Monobloc - La Sagrera"}, {"lon": 2.149465, "lat": 41.4145241, "name": null}, {"lon": 0.9590217000000001, "lat": 41.2669438, "name": "El Didot"}, {"lon": 2.1553940000000003, "lat": 41.3822844, "name": "roc\u00f2drom infantil"}, {"lon": 2.7745204, "lat": 41.6750497, "name": "Golem Blanes"}, {"lon": 0.8701113, "lat": 42.705024, "name": "Via Ferrata Le Circ du Soleil i Le Circ de la Lune K7+ i K7"}, {"lon": 2.0759817000000003, "lat": 41.7912552, "name": "Moia - Sector Montbru"}, {"lon": 0.9648318, "lat": 41.3550655, "name": "Vilanova de Prades"}, {"lon": 0.7558883000000001, "lat": 42.0299807, "name": "Climbing site"}, {"lon": 1.6145076, "lat": 41.582226600000006, "name": "Ingravita Climbing Boulder"}, {"lon": 0.7814831000000001, "lat": 41.262134700000004, "name": "Grau de l'Enderrocada"}, {"lon": 1.8872032, "lat": 42.2265023, "name": "les Esposes"}, {"lon": 1.1548511000000001, "lat": 41.3137303, "name": "Llosa Negra"}, {"lon": 2.481379, "lat": 42.173422, "name": "Can Bombo"}, {"lon": 0.869954, "lat": 42.7043186, "name": "Via ferrada eth Taro d'Arties, Roca Blanca"}, {"lon": 1.1666369, "lat": 41.317416, "name": "Clot d'en Goda"}, {"lon": 1.7357853, "lat": 42.2283003, "name": "Rocodrom"}, {"lon": 1.7226954, "lat": 42.2474973, "name": null}, {"lon": 0.7812553000000001, "lat": 41.288627600000005, "name": "La Visera"}, {"lon": 0.7815345, "lat": 41.2880328, "name": "Rac\u00f3 de la Coma Closa"}, {"lon": 0.7862039000000001, "lat": 41.2959939, "name": "Ca la Marta"}, {"lon": 0.7887748, "lat": 41.2947506, "name": "Rac\u00f3 de la Taverna"}, {"lon": 0.7789213, "lat": 41.2917426, "name": "Neorural"}, {"lon": 0.7898292, "lat": 41.293793900000004, "name": "Rac\u00f3 de la Taverna II"}, {"lon": 0.7076760000000001, "lat": 42.8026556, "name": "via ferrata Cledes"}, {"lon": 0.6822209, "lat": 42.0399246, "name": "Via ferrada Canal de los Olmos"}, {"lon": 0.6970498, "lat": 42.041312500000004, "name": "Ferrata Urquiza Olmo K5+"}, {"lon": 0.6972605000000001, "lat": 42.0415402, "name": "Via ferrada Feliz Navidad"}, {"lon": 2.8169557000000003, "lat": 41.971896300000004, "name": "Cal Mico"}, {"lon": 1.8055569, "lat": 41.7461131, "name": "Buldervuit"}, {"lon": 2.1839032, "lat": 41.436916100000005, "name": "roc\u00f2drom"}, {"lon": 2.1764616, "lat": 41.388341700000005, "name": "Sala Boulder CEC"}, {"lon": 2.1674567000000002, "lat": 42.307124, "name": "Via ferrada Roca de la Creu"}, {"lon": 1.7890372, "lat": 41.601218800000005, "name": "Cam\u00ed equipat Torrent del Lloro"}, {"lon": 2.2498623, "lat": 41.726478400000005, "name": "Salt del Prat"}, {"lon": 0.6706268000000001, "lat": 42.0443039, "name": "Via ferrada Cast Urquiza Olmo"}, {"lon": 0.6706804000000001, "lat": 42.044236000000005, "name": "Via ferrada Teletubbies"}, {"lon": 1.1215946, "lat": 41.1580129, "name": "Monobloc"}, {"lon": 1.15368, "lat": 41.308911, "name": "Barranc dels Tres Pilans"}, {"lon": 1.8769185000000002, "lat": 41.6258592, "name": "Via ferrada Tur\u00f3 de l'Escletxa"}, {"lon": 2.0719365, "lat": 41.536692200000005, "name": null}, {"lon": 1.8065735, "lat": 41.6011037, "name": "Salamandra Via Normal"}, {"lon": 0.8888021, "lat": 42.0470306, "name": null}, {"lon": 0.8864216, "lat": 42.0471773, "name": null}, {"lon": 0.8845261000000001, "lat": 42.0473574, "name": null}, {"lon": 1.8018800000000001, "lat": 41.590729, "name": "Sol Solet"}, {"lon": 2.0988953, "lat": 41.536557900000005, "name": "La Panxa del Bou"}, {"lon": 3.0511482, "lat": 41.8153797, "name": null}, {"lon": 1.1600716, "lat": 41.3081516, "name": "Castell Dalmau"}, {"lon": 1.158873, "lat": 41.3188562, "name": "La Xina"}, {"lon": 1.1601528, "lat": 41.308197, "name": "Castell Dalmau"}, {"lon": 0.9364213, "lat": 41.258572400000006, "name": "Siurana"}, {"lon": 2.2654914, "lat": 41.749318900000006, "name": "Cingles del Foll\u00f3"}, {"lon": 1.7978663000000001, "lat": 41.5891601, "name": null}, {"lon": 0.9044543, "lat": 41.2615385, "name": "Goma2"}, {"lon": 2.1374191000000002, "lat": 41.3736417, "name": "Freebloc, gimnasio de escalada"}, {"lon": 1.8070074, "lat": 42.196733200000004, "name": "Via ferrada Cal Curt"}, {"lon": 1.8066925, "lat": 42.1964926, "name": "Via ferrada Roques d'Empalomar"}, {"lon": 1.8063344000000001, "lat": 42.197849500000004, "name": "Via ferrada Canalassa"}, {"lon": 1.8134695, "lat": 41.606931100000004, "name": "Canal del Mejill\u00f3n"}, {"lon": 1.8133860000000002, "lat": 41.607005, "name": "Via ferrada la Teresina (tancada)"}, {"lon": 1.8796772000000002, "lat": 42.0375117, "name": "Roc\u00f2drom"}, {"lon": 1.8297287000000002, "lat": 41.732774500000005, "name": "Can Romu"}, {"lon": 2.1891159, "lat": 41.4113867, "name": "Indoorwall el Clot"}, {"lon": 0.9319262, "lat": 41.2626951, "name": "Recingle del Tit\u00ed"}, {"lon": 1.8885726, "lat": 41.575729100000004, "name": "Balma de l'Espluga"}, {"lon": 1.1286759000000002, "lat": 41.0796289, "name": null}, {"lon": 2.0180738000000003, "lat": 41.438655000000004, "name": "les Escletxes"}, {"lon": 0.6881889, "lat": 42.0450444, "name": "Via ferrada Urquiza-Olmo"}, {"lon": 1.4196121000000002, "lat": 42.112665400000004, "name": "Via ferrada Extasy of Flying"}, {"lon": 2.2105633, "lat": 41.415725300000005, "name": "Sharma Climbing BCN"}, {"lon": 2.2378526, "lat": 41.7663318, "name": null}, {"lon": 0.7678741, "lat": 41.2764351, "name": "4-Bloc del Pork"}, {"lon": 0.7800065, "lat": 41.290183600000006, "name": "La Catedral"}, {"lon": 0.7797528, "lat": 41.2931832, "name": "Can Regino"}, {"lon": 0.7750501000000001, "lat": 41.2972168, "name": "10-Can Torxa"}, {"lon": 0.9649112000000001, "lat": 41.355072, "name": "Vilanova de Prades"}, {"lon": 0.9456409, "lat": 41.3494685, "name": "Sector Penya Alta"}, {"lon": 2.9501817000000004, "lat": 41.805483, "name": "Sector Solius Central Sud"}, {"lon": 1.8327941, "lat": 41.729071100000006, "name": "el Pati Vertical Xic"}, {"lon": 3.043245, "lat": 41.779245, "name": "Via Ferrada Cala del Mol\u00ed"}, {"lon": 1.7927576, "lat": 41.591430700000004, "name": null}, {"lon": 2.99148, "lat": 41.868448300000004, "name": null}, {"lon": 2.3415824, "lat": 41.9591755, "name": "Sant Feliuet de Savassona"}, {"lon": 1.9694572000000001, "lat": 41.416593400000004, "name": "Vies d'escalada"}, {"lon": 0.9291228, "lat": 41.264309600000004, "name": "L'Herbolari"}, {"lon": 2.2080585, "lat": 41.8044948, "name": "Via ferrada de les Baumes Corcades"}, {"lon": 1.8164512000000002, "lat": 41.5834411, "name": "Canal de les Dames"}, {"lon": 2.9499722000000004, "lat": 41.809112500000005, "name": "Solius"}, {"lon": 2.1607778, "lat": 42.3167229, "name": "La Lleixa"}, {"lon": 2.1671944, "lat": 42.339832300000005, "name": "Gours"}, {"lon": 1.3381112000000002, "lat": 42.2278595, "name": "Organy\u00e0"}, {"lon": 1.3943334, "lat": 42.179084800000005, "name": null}, {"lon": 1.3053889, "lat": 42.1772232, "name": "Coll Piquer"}, {"lon": 2.2372937, "lat": 41.7925933, "name": "Blocat"}, {"lon": 1.0473554, "lat": 41.0787831, "name": null}, {"lon": 1.3157603, "lat": 42.549453500000006, "name": "Via ferrada del Salt del Botanal"}, {"lon": 2.1786694, "lat": 41.396086000000004, "name": "Bloc District Tetuan"}, {"lon": 0.6407173, "lat": 41.6057307, "name": "Fanatic Lleida"}, {"lon": 2.0288946, "lat": 41.5466962, "name": "Gravetat Zero"}, {"lon": 0.298943, "lat": 40.8937371, "name": "Estrets del sol"}, {"lon": 2.4533611, "lat": 41.5424364, "name": "B\u00falder Planet"}, {"lon": 0.6626759000000001, "lat": 41.6125686, "name": "Boulder Indoor"}, {"lon": 2.1585707000000003, "lat": 41.4234603, "name": "Roc\u00f2drom de l'Espai Jove Boca Nord"}, {"lon": 2.2261426, "lat": 41.7825088, "name": null}, {"lon": 0.31779820000000003, "lat": 40.750486800000004, "name": "Canal Amunt"}, {"lon": 0.3039047, "lat": 40.738324600000006, "name": "Ferrada sortida del barranc del Coc\u00f3 Fondo"}, {"lon": 0.3035336, "lat": 40.7380026, "name": "Ferrada"}, {"lon": 2.0938510000000004, "lat": 41.8113545, "name": "Boulder"}, {"lon": 2.0860933, "lat": 41.357733700000004, "name": "roc\u00f2drom"}, {"lon": 1.464611, "lat": 42.354753, "name": null}, {"lon": 1.1587582, "lat": 41.3175666, "name": "Pil\u00f3 Suicida"}, {"lon": 1.1588788, "lat": 41.317923900000004, "name": "La Penya darrera el Pil\u00f3"}, {"lon": 1.1596304000000002, "lat": 41.3173989, "name": "Els Tres Grans"}, {"lon": 1.1585664, "lat": 41.3170921, "name": "Penya Roja"}, {"lon": 1.1605322, "lat": 41.316856400000006, "name": "La Platgeta"}, {"lon": 2.5909524000000004, "lat": 42.2812655, "name": null}, {"lon": 2.5889161, "lat": 42.2807769, "name": null}, {"lon": 0.7045457, "lat": 42.8019363, "name": "Rocodrom"}, {"lon": 2.083707, "lat": 42.2675123, "name": "Paret del malp\u00e0s"}, {"lon": 2.0128906, "lat": 41.303898100000005, "name": "Kimera Climbing Barcelona"}, {"lon": 2.1758768, "lat": 41.4337625, "name": "mini-roc\u00f2drom"}, {"lon": 2.4480593, "lat": 42.008233700000005, "name": null}, {"lon": 2.1889678000000004, "lat": 41.3968987, "name": "Bloc District"}, {"lon": 0.7743115, "lat": 41.301830800000005, "name": "Rac\u00f3 de les Espadelles"}, {"lon": 0.782463, "lat": 41.3006863, "name": "Bombo Taronja"}, {"lon": 0.781823, "lat": 41.3003821, "name": "Bona Vista"}, {"lon": 0.7794208, "lat": 41.300865200000004, "name": "Cova del Cavall"}, {"lon": 0.7722525, "lat": 41.302114700000004, "name": "Puntas Espadelles"}, {"lon": 0.7783204, "lat": 41.300735200000005, "name": "Soledad"}, {"lon": 0.7767764, "lat": 41.3010205, "name": "La Mainadera"}, {"lon": 1.8248513000000002, "lat": 41.5749903, "name": null}, {"lon": 2.3627283, "lat": 41.638202, "name": "Boulder La Fusteria"}, {"lon": 0.9558002000000001, "lat": 41.8671985, "name": "L'Indret"}, {"lon": 0.9854534, "lat": 41.8730069, "name": "Penyes de Mania"}, {"lon": 0.9449082000000001, "lat": 41.250787200000005, "name": "El Falc\u00f3"}, {"lon": 2.610971, "lat": 42.0210412, "name": null}, {"lon": 2.6453333000000003, "lat": 41.6074044, "name": null}, {"lon": 0.5188863, "lat": 41.5629707, "name": "L'Aspardenya"}, {"lon": 2.0919042, "lat": 41.625908100000004, "name": "Xaragall del Foi\u00f3"}, {"lon": 0.6401734, "lat": 41.624448300000005, "name": "Roc\u00f3dromo Punt Extrem"}, {"lon": 0.6145606, "lat": 41.6105669, "name": "Club d'Escalada Disblia"}, {"lon": 1.7504682, "lat": 41.5983089, "name": null}, {"lon": 3.2036269, "lat": 41.893588900000005, "name": null}, {"lon": 2.0165359, "lat": 42.2821842, "name": null}, {"lon": 1.8156642, "lat": 41.6034754, "name": "cadena"}, {"lon": 2.2413942000000002, "lat": 41.7334297, "name": null}, {"lon": 2.2311338000000003, "lat": 41.7595656, "name": null}, {"lon": 2.2309267, "lat": 41.7601566, "name": null}, {"lon": 0.8227913, "lat": 41.082633400000006, "name": null}, {"lon": 0.8234118, "lat": 41.0803189, "name": null}, {"lon": 0.8755860000000001, "lat": 41.050694500000006, "name": null}, {"lon": 0.6772109000000001, "lat": 42.0442248, "name": "V\u00eda cordata K7 \"El C\u00edclop\""}, {"lon": 1.8229841000000002, "lat": 41.5757131, "name": "totxo de l'estel"}, {"lon": 1.8230780000000002, "lat": 41.5756303, "name": "Placa de l'Indi"}, {"lon": 1.8239576000000002, "lat": 41.575538200000004, "name": "els Graus"}, {"lon": 1.3454883000000002, "lat": 41.2342274, "name": null}, {"lon": 1.3406048000000002, "lat": 41.2378744, "name": null}, {"lon": 2.33964, "lat": 41.5548676, "name": "escalada Cellecs"}, {"lon": 2.3372588000000003, "lat": 41.559037100000005, "name": "C\u00e9llecs, sector Contravent"}, {"lon": 0.9006715000000001, "lat": 41.0618702, "name": null}, {"lon": 2.1281534, "lat": 41.3846738, "name": "Roc\u00f2drom"}, {"lon": 2.0454664, "lat": 41.5051809, "name": "Drac de Pedra"}, {"lon": 0.8752225, "lat": 42.2765544, "name": "Lo Barrancot"}, {"lon": 0.9368442, "lat": 42.2875673, "name": null}, {"lon": 1.8409923000000001, "lat": 41.7364387, "name": "Indoorwall Manresa"}, {"lon": 2.3399704000000003, "lat": 41.55765, "name": null}, {"lon": 2.9528744000000002, "lat": 41.806157400000004, "name": null}, {"lon": 0.9359542000000001, "lat": 41.2403752, "name": "Placa Duc"}, {"lon": 0.3148767, "lat": 40.8897288, "name": null}, {"lon": 0.2940554, "lat": 40.895574200000006, "name": null}, {"lon": 0.30756520000000004, "lat": 40.8984789, "name": null}, {"lon": 0.2952302, "lat": 40.882775, "name": null}, {"lon": 0.2963334, "lat": 40.888881700000006, "name": null}, {"lon": 0.29164070000000003, "lat": 40.895738300000005, "name": null}, {"lon": 0.4869819, "lat": 41.0376861, "name": null}, {"lon": 2.339395, "lat": 41.554797900000004, "name": "escalada Cellecs"}, {"lon": 1.1291169, "lat": 41.147016, "name": "SLAB, SALA DE ESCALADA"}, {"lon": 1.9377937, "lat": 41.2728866, "name": null}, {"lon": 1.8525575, "lat": 42.2281531, "name": "Escalada - Cingles de les Pasteres 1"}, {"lon": 1.8541093000000002, "lat": 42.2281391, "name": "Escalada - Cingles de les Pasteres 2"}, {"lon": 1.8743023, "lat": 41.427325800000006, "name": null}, {"lon": 1.8735169, "lat": 41.4277862, "name": null}, {"lon": 1.8714997000000002, "lat": 41.4290267, "name": null}, {"lon": 1.8552528000000001, "lat": 41.7409631, "name": "el Pati Vertical Gran"}, {"lon": 0.7309374000000001, "lat": 41.251763100000005, "name": "totxos del cam\u00ed"}, {"lon": 0.7511474, "lat": 41.2575355, "name": "Lo pared\u00f3n"}, {"lon": 0.7299732000000001, "lat": 41.2538166, "name": "Els solans"}, {"lon": 0.7413711000000001, "lat": 41.2576989, "name": "Els tormegals"}, {"lon": 0.7401369000000001, "lat": 41.260900500000005, "name": "Can xixanta"}, {"lon": 0.7560884, "lat": 41.2580736, "name": "El Falconet"}, {"lon": 0.730755, "lat": 41.229901600000005, "name": "L' onada"}, {"lon": 0.7999804, "lat": 41.2666734, "name": "L'Escletxa"}, {"lon": 0.7916338, "lat": 41.261605100000004, "name": "Els Codinals"}, {"lon": 0.8080832, "lat": 41.2631765, "name": "Totxo d'Escaladei"}, {"lon": 0.8102521, "lat": 41.269607300000004, "name": "El Trinquet"}, {"lon": 3.1644442, "lat": 42.3025564, "name": "palau saverdera"}, {"lon": 3.0922530000000004, "lat": 42.339861400000004, "name": "castell de Querman\u00e7\u00f3 Pared Sud-Est"}, {"lon": 3.0917625, "lat": 42.339593, "name": "castell de Querman\u00e7\u00f3 Pared sudoest"}, {"lon": 3.1593101000000003, "lat": 42.3202626, "name": "Sant Onofre"}, {"lon": 2.6451333000000004, "lat": 41.6073735, "name": "Far de Calella"}], "yoga": [{"lon": 2.1768795, "lat": 41.412598100000004, "name": "Byoga"}, {"lon": 2.1248970000000003, "lat": 41.386589900000004, "name": "The Class BCN"}, {"lon": 1.7228619, "lat": 41.2239944, "name": "Yoga-Soto"}, {"lon": 2.1475952, "lat": 41.403212, "name": "Yoga One Pl. Molina"}, {"lon": 1.1082800000000002, "lat": 41.1570112, "name": "Emedea"}, {"lon": 2.1605334000000003, "lat": 41.4004652, "name": "Jard\u00edn de Hara"}, {"lon": 2.161568, "lat": 41.386906, "name": "Mou Pilates"}, {"lon": 2.1601855000000003, "lat": 41.4012917, "name": "yoga-marga autopr\u00e1ctica"}, {"lon": 1.7154671000000001, "lat": 41.2200488, "name": "Centre Yoga om Vilanova"}, {"lon": 1.7240234, "lat": 41.220079600000005, "name": "YogaONE"}, {"lon": 1.7305961, "lat": 41.2179299, "name": "Buddhi Yoga Vilanova"}, {"lon": 1.7203679, "lat": 41.2280111, "name": "Mec Pilates"}, {"lon": 1.7273658, "lat": 41.2266137, "name": "Centre Yogadanda"}, {"lon": 2.1696798, "lat": 41.381993300000005, "name": "Yoga Weeks Barcelona"}, {"lon": 2.1603349, "lat": 41.4045222, "name": "Centre de Mindfulness de Barcelona"}, {"lon": 2.1711987, "lat": 41.3987544, "name": "Grup de Meditaci\u00f3 de Barcelona de Self-Realization Fellowship"}, {"lon": 1.1081449, "lat": 41.161438100000005, "name": "Personal Pilates Reus"}, {"lon": 2.5775408, "lat": 41.5882212, "name": "Sis\u00e8 Sentit Estudi de Dansa i Pilates"}, {"lon": 2.3963155, "lat": 41.5060069, "name": "L'estudi Yoga"}, {"lon": 2.2970758, "lat": 41.6306226, "name": "COOT Pilates"}, {"lon": 2.1713992, "lat": 41.400338700000006, "name": "dona pilates & ioga"}, {"lon": 2.2686962, "lat": 41.4826422, "name": "Centro Pilates Tiana"}, {"lon": 2.0876876, "lat": 41.532446, "name": "Satya"}, {"lon": 2.0921410000000003, "lat": 41.6174535, "name": "Anandhi Yoga"}, {"lon": 1.2470513, "lat": 41.114146600000005, "name": "denergia"}, {"lon": 2.1661664000000003, "lat": 41.371626, "name": "The garage by Veronica Blume"}, {"lon": 2.2427184000000002, "lat": 41.9314259, "name": "Osona Pilates"}, {"lon": 2.1825868, "lat": 41.3813746, "name": "Ashtanga Yoga Shala"}, {"lon": 2.1677995, "lat": 41.400401200000005, "name": "yogaia"}, {"lon": 2.1570400000000003, "lat": 41.4054523, "name": "Yoga con Gracia"}, {"lon": 2.1659453, "lat": 41.6274528, "name": "Spiritual Yoga & Dance"}, {"lon": 2.8976125, "lat": 41.8218192, "name": "Espai Aura Yoga"}, {"lon": 2.1543134, "lat": 41.3988986, "name": "Sarasvati"}, {"lon": 1.0968292000000002, "lat": 41.1550031, "name": "Prana Hub"}, {"lon": 2.1761633000000002, "lat": 41.3991679, "name": "Let's Fly"}, {"lon": 2.1599488, "lat": 41.4065449, "name": "l'Espiral"}, {"lon": 2.1605672, "lat": 41.4060222, "name": "Villa Zen Barcelona"}, {"lon": 2.1422207, "lat": 41.4904707, "name": "Centro de Yoga Om Shanti"}, {"lon": 1.2532341, "lat": 41.2875403, "name": "CalyIoga"}, {"lon": 2.2319692, "lat": 41.5711645, "name": "Espai Tai Ji Chen"}, {"lon": 2.3565105, "lat": 41.489518600000004, "name": "La Matrika"}, {"lon": 2.121349, "lat": 41.3890346, "name": "Pilates Olga Gir\u00f3"}, {"lon": 0.6172541, "lat": 41.6184219, "name": "Svatma Yoga"}, {"lon": 1.2884579, "lat": 41.786177800000004, "name": "Espai Consciencia"}, {"lon": 0.6157539000000001, "lat": 41.6180305, "name": "YogaOne"}, {"lon": 2.2003156, "lat": 41.401226300000005, "name": "Happyyoga"}, {"lon": 2.2002302, "lat": 41.401999200000006, "name": "Mou-te"}, {"lon": 1.6445633000000002, "lat": 41.541172100000004, "name": "Can Llop"}, {"lon": 2.1671289000000002, "lat": 41.4380588, "name": "Camino al Bienestar"}, {"lon": 2.1515323, "lat": 41.4067997, "name": "Yoga Body"}, {"lon": 2.1357042, "lat": 41.491734900000004, "name": "YogaOne"}, {"lon": 2.1591689, "lat": 41.4004271, "name": "Gruo"}, {"lon": 2.1550837, "lat": 41.4012971, "name": "mamayoga"}, {"lon": 2.1692252, "lat": 41.393006, "name": "Espai de meditaci\u00f3"}, {"lon": 2.1587629, "lat": 41.3996189, "name": "The Yoga Club Barcelona"}, {"lon": 2.1569920000000002, "lat": 41.399709300000005, "name": "Espacio Sattva"}, {"lon": 1.0997656, "lat": 41.156191500000006, "name": "Hridayam"}, {"lon": 2.1558505, "lat": 41.400593900000004, "name": "Espacio Sincronia"}, {"lon": 0.8227522, "lat": 41.5489016, "name": "Lumbini Yoga"}, {"lon": 1.1032793, "lat": 41.151096300000006, "name": "Balance Reus"}, {"lon": 1.1049814, "lat": 41.1447797, "name": "Pilates revolution reus"}, {"lon": 1.1077039, "lat": 41.1537875, "name": "YogaOne Reus"}, {"lon": 1.1091839000000001, "lat": 41.1529771, "name": "Origami"}, {"lon": 1.8719141000000001, "lat": 41.539828, "name": "Oxygen\u00b7Pranic"}, {"lon": 2.0375923, "lat": 41.3449541, "name": "Astadala"}, {"lon": 2.0380864, "lat": 41.344425400000006, "name": "Yoga One"}, {"lon": 2.1546635000000003, "lat": 41.4060061, "name": "YogaOne Verdi"}], "hospital": [{"lon": 2.4489569, "lat": 41.5396821, "name": "Antic Hospital de S. Jaume i Sta. Magdalena"}, {"lon": 2.0381879, "lat": 41.3464296, "name": "Centre de Salut Mental Infantil i Juvenil Sant Boi"}, {"lon": 2.1733003, "lat": 41.3970879, "name": "Hospital HM Nens"}, {"lon": 2.2959097, "lat": 41.6134098, "name": "Fundaci\u00f3 Hospital Asil de Granollers"}, {"lon": 2.8021380000000002, "lat": 41.687334500000006, "name": "Hospital comarcal de la Selva"}, {"lon": 2.7870169000000002, "lat": 41.6761848, "name": "Hospital Asil Sant Jaume"}, {"lon": 1.4609585, "lat": 42.3548545, "name": "Fundaci\u00f3 Sant Hospital"}, {"lon": 2.1177936, "lat": 41.532514, "name": "Cl\u00ednica del Vall\u00e8s"}, {"lon": 2.1750835, "lat": 41.583384, "name": "Centre d'Atenci\u00f3 Prim\u00e0ria de Palau-solit\u00e0 i Plegamans"}, {"lon": 0.5214104, "lat": 40.8034917, "name": "Mutua Universal"}, {"lon": 2.1162827, "lat": 41.5450226, "name": "Cruz Roja Sabadell"}, {"lon": 2.1590499000000003, "lat": 41.4111635, "name": "Hospital Evang\u00e8lic"}, {"lon": 2.4675162, "lat": 42.187462200000006, "name": "Hospital d'Olot i comarcal de la Garrotxa"}, {"lon": 1.0574966000000001, "lat": 41.0715397, "name": "Hospital Lleuger Antoni de Gimbernat"}, {"lon": 1.246444, "lat": 41.290280700000004, "name": "Creu Roja"}, {"lon": 1.6187203000000001, "lat": 41.5826044, "name": "Unitat d'Hospitalitzaci\u00f3 de la FSSJ"}, {"lon": 2.1636033, "lat": 41.400939, "name": "Fundaci\u00f3 Eul\u00e0lia Torras de Be\u00e0"}, {"lon": 2.4319885, "lat": 41.5326468, "name": "Hospital Creu Blanca"}, {"lon": 2.173848, "lat": 41.397336, "name": "Hospital de Nens de Barcelona"}, {"lon": 2.1233090000000003, "lat": 41.391311300000005, "name": "Hispital Cima. Sanitas"}, {"lon": 1.9705830000000002, "lat": 41.8655131, "name": "Centre d'Atenci\u00f3 Prim\u00e0ria Aviny\u00f3"}, {"lon": 2.4868785, "lat": 41.6860008, "name": "Mutua"}, {"lon": 2.0994157, "lat": 41.5502449, "name": "CLINICFISIO Fisioter\u00e0pia i Osteopatia"}, {"lon": 2.3673134, "lat": 41.5150376, "name": "Nau PZ VDD"}, {"lon": 1.7008644000000002, "lat": 41.3472929, "name": "SDS Dental Clinic"}, {"lon": 2.1533841000000002, "lat": 41.3828587, "name": "Centre M\u00e8dic Arag\u00f3"}, {"lon": 2.7426760000000003, "lat": 41.8105471, "name": "Centro m\u00e9dico Illa de Salut"}, {"lon": 2.74296, "lat": 41.8100954, "name": "Centre d'Atenci\u00f3 Prim\u00e0ria de Sils"}, {"lon": 2.0142445, "lat": 41.312604400000005, "name": null}, {"lon": 2.018367, "lat": 41.3216302, "name": null}, {"lon": 2.0143244, "lat": 41.3233611, "name": null}, {"lon": 2.0094311, "lat": 41.317489900000005, "name": null}, {"lon": 2.0186832000000003, "lat": 41.322050000000004, "name": null}, {"lon": 2.4893466, "lat": 42.1800696, "name": "Cl\u00ednica Bofill"}, {"lon": 0.9463064000000001, "lat": 41.0142894, "name": null}, {"lon": 2.2485861000000003, "lat": 41.5519715, "name": "Clasalut Servicios"}]}